stop_id,stop_code,stop_name,stop_desc,stop_lat,stop_lon,zone_id,stop_url,location_type,parent_station,stop_timezone,wheelchair_boarding
70,,"Búcsúszentlászló",,46.793056,16.932778,,,0,,,2
140,,"Angyalföld",,47.549722,19.09,,,0,,,2
184,,"Felsőjánosfa",,46.841389,16.544167,,,0,,,2
185,,"Pankasz",,46.835833,16.496111,,,0,,,2
186,,"Nagyrákos",,46.827222,16.455556,,,0,,,2
187,,"Őriszentpéter",,46.828889,16.415278,,,0,,,2
189,,"Törökbálint",,47.45,18.908611,,,0,,,2
190,,"Bicske alsó",,47.486389,18.642778,,,0,,,2
191,,"Bajánsenye",,46.818056,16.358056,,,0,,,2
192,,"Aquincum",,47.566218,19.048273,,,0,,,2
193,,"Piliscsév",,47.673889,18.791389,,,0,,,2
194,,"Tát",,47.741201,18.64783,,,0,,,2
195,,"Süttő felső",,47.756667,18.437222,,,0,,,2
199,,"Budatétény",,47.405,19.016389,,,0,,,2
200,,"Seregélyes-Szőlőhegy",,47.119444,18.612222,,,0,,,2
201,,"Gödöllő-Állami telepek",,47.564444,19.375556,,,0,,,2
203,,"Dunakeszi alsó",,47.607778,19.128889,,,0,,,2
204,,"Vác-Alsóváros",,47.773056,19.149722,,,0,,,2
206,,"Szob alsó",,47.816667,18.8725,,,0,,,2
207,,"Zalaszentmihály-Pacsa",,46.7225,16.951944,,,0,,,2
208,,"Pötréte",,46.682778,16.9575,,,0,,,2
209,,"Felsőrajk",,46.667222,16.982778,,,0,,,2
211,,"Gelse",,46.600556,16.982778,,,0,,,2
219,,"Őrtilos",,46.297778,16.887778,,,0,,,2
220,,"Zákány",,46.251944,16.9425,,,0,,,2
221,,"Berzence",,46.201389,17.143611,,,0,,,2
222,,"Somogyudvarhely",,46.163333,17.179722,,,0,,,2
223,,"Bélavár",,46.122778,17.207778,,,0,,,2
224,,"Vízvár",,46.101389,17.239444,,,0,,,2
225,,"Babócsa",,46.0375,17.335833,,,0,,,2
226,,"Péterhida-Komlósd",,46.006667,17.358056,,,0,,,2
228,,"Barcs",,45.951944,17.446944,,,0,,,2
229,,"Barcs felső",,45.958333,17.486389,,,0,,,2
230,,"Középrigóc",,45.970556,17.525,,,0,,,2
231,,"Darány",,45.992222,17.598611,,,0,,,2
232,,"Kisdobsza",,46.012222,17.668056,,,0,,,2
233,,"Nemeske",,46.023333,17.705278,,,0,,,2
234,,"Molvány",,46.035278,17.748611,,,0,,,2
235,,"Szigetvár",,46.043333,17.801944,,,0,,,2
237,,"Nagypeterd",,46.039444,17.871667,,,0,,,2
238,,"Szentdénes",,46.036667,17.926944,,,0,,,2
239,,"Háros",,47.412222,19.035,,,0,,,2
240,,"Nagytétény-Diósd",,47.398333,18.974444,,,0,,,2
241,,"Érdliget",,47.390278,18.937778,,,0,,,2
242,,"Érd felső",,47.381111,18.922222,,,0,,,2
243,,"Érd",,47.369722,18.900833,,,0,,,2
244,,"Százhalombatta",,47.322222,18.899167,,,0,,,2
245,,"Dunai Finomító",,47.294444,18.878889,,,0,,,2
246,,"Ercsi",,47.247222,18.875278,,,0,,,2
247,,"Iváncsa",,47.177778,18.811944,,,0,,,2
248,,"Pusztaszabolcs",,47.139722,18.761667,,,0,,,2
249,,"Szabadegyháza",,47.082778,18.704167,,,0,,,2
250,,"Sárosd",,47.039722,18.660278,,,0,,,2
251,,"Nagylók",,46.979444,18.635833,,,0,,,2
252,,"Sárbogárd",,46.896944,18.611944,,,0,,,2
253,,"Rétszilas",,46.814167,18.601389,,,0,,,2
260,,"Nagyatád",,46.228611,17.354167,,,0,,,2
267,,"Budapest-Keleti",,47.500278,19.084167,,,0,,,1
268,,"Ferencváros",,47.468611,19.088056,,,0,,,2
269,,"Budapest-Nyugati",,47.510833,19.0575,,,0,,,1
272,,"Kőbánya felső",,47.491944,19.133889,,,0,,,2
273,,"Rákos",,47.488889,19.174722,,,0,,,2
274,,"Rákosrendező",,47.525556,19.089444,,,0,,,2
275,,"Zugló",,47.511389,19.101389,,,0,,,2
277,,"Mezőtárkány",,47.725,20.480278,,,0,,,2
278,,"Istvántelek",,47.550278,19.106389,,,0,,,2
279,,"Rákospalota-Újpest",,47.565833,19.111944,,,0,,,2
280,,"Kőbánya alsó",,47.483056,19.127222,,,0,,,2
281,,"Kőbánya-Kispest",,47.463889,19.149444,,,0,,,2
282,,"Pestszentlőrinc",,47.454722,19.182778,,,0,,,2
283,,"Kispest",,47.448135,19.157552,,,0,,,2
284,,"Újpest",,47.558889,19.079722,,,0,,,2
288,,"Pestszentimre felső",,47.413611,19.173333,,,0,,,2
289,,"Dunakeszi",,47.626111,19.136111,,,0,,,2
290,,"Dunakeszi-Gyártelep",,47.643611,19.135,,,0,,,2
291,,"Alsógöd",,47.676944,19.134444,,,0,,,2
292,,"Göd",,47.687778,19.1375,,,0,,,2
293,,"Felsőgöd",,47.705556,19.143333,,,0,,,2
294,,"Sződ-Sződliget",,47.728056,19.154722,,,0,,,2
295,,"Vác",,47.782778,19.133056,,,0,,,2
296,,"Verőce",,47.823889,19.029444,,,0,,,2
297,,"Kismaros",,47.8275,19.010278,,,0,,,2
298,,"Nagymaros-Visegrád",,47.791389,18.959167,,,0,,,2
299,,"Nagymaros",,47.780278,18.952222,,,0,,,2
300,,"Zebegény",,47.801389,18.908889,,,0,,,2
301,,"Szob",,47.821111,18.861944,,,0,,,2
302,,"Alagimajor",,47.601944,19.153889,,,0,,,2
303,,"Fót",,47.611389,19.181667,,,0,,,2
304,,"Fótújfalu",,47.615,19.192778,,,0,,,2
305,,"Csomád",,47.635556,19.222778,,,0,,,2
306,,"Veresegyház",,47.649167,19.288611,,,0,,,2
307,,"Erdőkertes",,47.662222,19.295833,,,0,,,2
308,,"Őrbottyán",,47.685833,19.283611,,,0,,,2
309,,"Váchartyán",,47.725833,19.248889,,,0,,,2
310,,"Magyarkút-Verőce",,47.826111,19.044444,,,0,,,2
311,,"Szokolya",,47.871111,19.030556,,,0,,,2
312,,"Berkenye",,47.885278,19.071944,,,0,,,2
313,,"Nógrád",,47.901944,19.0475,,,0,,,2
314,,"Diósjenő",,47.94,19.049444,,,0,,,2
315,,"Borsosberény",,47.971389,19.093056,,,0,,,2
316,,"Nagyoroszi",,47.993611,19.101111,,,0,,,2
317,,"Drégelyvár",,48.001944,19.079444,,,0,,,2
318,,"Drégely",,48.042222,19.056111,,,0,,,2
319,,"Drégelypalánk",,48.055,19.046111,,,0,,,2
320,,"Ipolyvece",,48.056944,19.106389,,,0,,,2
321,,"Dejtár",,48.045556,19.196389,,,0,,,2
322,,"Ipolyszög",,48.054444,19.221944,,,0,,,2
327,,"Iklad-Domony",,47.658056,19.444444,,,0,,,2
328,,"Iklad-Domony felső",,47.667778,19.428056,,,0,,,2
329,,"Galgamácsa",,47.693889,19.3925,,,0,,,2
330,,"Vácrátót",,47.732778,19.217778,,,0,,,2
331,,"Csörög",,47.735833,19.196389,,,0,,,2
332,,"Galgagyörk",,47.735278,19.372222,,,0,,,2
333,,"Püspökhatvan",,47.768611,19.366944,,,0,,,2
334,,"Acsa-Erdőkürt",,47.801111,19.386111,,,0,,,2
335,,"Galgaguta",,47.848611,19.385556,,,0,,,2
336,,"Nógrádkövesd",,47.879444,19.371111,,,0,,,2
337,,"Magyarnándor",,47.970833,19.356667,,,0,,,2
338,,"Mohora",,47.995556,19.347778,,,0,,,2
339,,"Szügy",,48.036389,19.333056,,,0,,,2
340,,"Balassagyarmat",,48.071111,19.293611,,,0,,,2
341,,"Őrhalom",,48.078773,19.403936,,,0,,,2
342,,"Hugyag",,48.083056,19.421111,,,0,,,2
343,,"Szécsény",,48.093056,19.521111,,,0,,,2
344,,"Ludányhalászi",,48.1325,19.529444,,,0,,,2
345,,"Nógrádszakál",,48.178333,19.521667,,,0,,,2
346,,"Ráróspuszta",,48.207222,19.541389,,,0,,,2
347,,"Litke",,48.215833,19.598611,,,0,,,2
420,,"Nyíregyháza külső",,47.943056,21.740278,,,0,,,2
421,,"Oros",,47.945833,21.806389,,,0,,,2
422,,"Napkor",,47.948889,21.873056,,,0,,,2
423,,"Apagy",,47.954444,21.940556,,,0,,,2
424,,"Levelek-Magy",,47.948056,21.993611,,,0,,,2
425,,"Ófehértó",,47.940556,22.041389,,,0,,,2
426,,"Ligettanya",,47.951667,22.071389,,,0,,,2
427,,"Baktalórántháza",,47.988611,22.083333,,,0,,,2
428,,"Vaja-Rohod",,48.006389,22.164167,,,0,,,2
429,,"Rákóczitanya",,48.022222,22.178333,,,0,,,2
430,,"Nyírmada",,48.059167,22.203056,,,0,,,2
431,,"Tunyogmatolcs",,47.966111,22.464722,,,0,,,2
432,,"Tunyogmatolcs alsó",,47.97,22.4725,,,0,,,2
433,,"Fehérgyarmat",,47.979167,22.524444,,,0,,,2
434,,"Penyige",,47.995278,22.566944,,,0,,,2
435,,"Nagyszekeres",,47.976111,22.6125,,,0,,,2
436,,"Kisszekeres",,47.965833,22.629444,,,0,,,2
437,,"Jánkmajtis",,47.941944,22.657222,,,0,,,2
438,,"Gacsály",,47.926111,22.745,,,0,,,2
439,,"Zajta",,47.9025,22.796111,,,0,,,2
440,,"Eperjeske alsó",,48.360556,22.19,,,0,,,2
441,,"Mándok",,48.326944,22.196389,,,0,,,2
442,,"Tornyospálca",,48.268333,22.201944,,,0,,,2
443,,"Aranyosapáti",,48.211111,22.254167,,,0,,,2
444,,"Gyüre",,48.171389,22.269167,,,0,,,2
445,,"Kisvarsány",,48.140278,22.300556,,,0,,,2
446,,"Vásárosnamény",,48.126667,22.306111,,,0,,,2
447,,"Vitka",,48.095556,22.308056,,,0,,,2
448,,"Nagydobos",,48.054167,22.311111,,,0,,,2
449,,"Ópályi",,47.997778,22.318333,,,0,,,2
450,,"Nyírcsaholy",,47.908056,22.348333,,,0,,,2
451,,"Nagyecsed",,47.864722,22.385556,,,0,,,2
452,,"Tiborszállás",,47.815278,22.402778,,,0,,,2
471,,"Kiskunhalas",,46.434444,19.493611,,,0,,,2
490,,"Kecskemét alsó",,46.895833,19.692222,,,0,,,2
700,,"Putnok",,48.286667,20.4375,,,0,,,2
701,,"Bánréve",,48.299722,20.351944,,,0,,,2
772,,"Ipolytarnóc",,48.236667,19.629167,,,0,,,2
773,,"Rákosliget",,47.486111,19.257778,,,0,,,2
787,,"Ikrény",,47.657778,17.524167,,,0,,,2
788,,"Rábapatona",,47.648889,17.461944,,,0,,,2
789,,"Enese",,47.644167,17.425278,,,0,,,2
790,,"Kóny",,47.632222,17.357222,,,0,,,2
793,,"Farád",,47.595278,17.195833,,,0,,,2
794,,"Rábatamási",,47.592778,17.161389,,,0,,,2
795,,"Szárföld",,47.589167,17.123889,,,0,,,2
796,,"Veszkény",,47.586944,17.101389,,,0,,,2
797,,"Kapuvár",,47.581944,17.046944,,,0,,,2
798,,"Vitnyéd-Csermajor",,47.5825,16.987222,,,0,,,2
799,,"Petőháza",,47.595278,16.893056,,,0,,,2
800,,"Fertőszentmiklós",,47.6,16.858889,,,0,,,2
801,,"Pinnye",,47.600278,16.768611,,,0,,,2
802,,"Fertőboz",,47.625,16.691667,,,0,,,2
804,,"Sopron",,47.677778,16.587222,,,0,,,1
806,,"Fertőszéplak-Fertőd",,47.618889,16.850833,,,0,,,2
809,,"Nyúl",,47.587778,17.698056,,,0,,,2
811,,"Pannonhalma",,47.547778,17.740833,,,0,,,2
812,,"Tarjánpuszta",,47.504722,17.789167,,,0,,,2
813,,"Győrasszonyfa",,47.4925,17.799167,,,0,,,2
814,,"Veszprémvarsány",,47.443333,17.818333,,,0,,,2
815,,"Bakonyszentlászló",,47.395556,17.8175,,,0,,,2
816,,"Porva-Csesznek",,47.326944,17.841111,,,0,,,2
817,,"Zirc",,47.266667,17.878056,,,0,,,2
818,,"Eplény",,47.192778,17.921667,,,0,,,2
819,,"Marcaltő",,47.4275,17.348889,,,0,,,2
820,,"Szany-Rábaszentandrás",,47.460833,17.315278,,,0,,,2
821,,"Egyed-Rábacsanak",,47.521944,17.316389,,,0,,,2
822,,"Rábapordány",,47.557222,17.315,,,0,,,2
823,,"Albertfalva",,47.439444,19.035,,,0,,,2
824,,"Budafok",,47.425833,19.041389,,,0,,,2
826,,"Tétényliget",,47.384722,18.955278,,,0,,,2
827,,"Érd alsó",,47.379722,18.923056,,,0,,,2
828,,"Tárnok",,47.365556,18.873889,,,0,,,2
829,,"Martonvásár",,47.321389,18.781667,,,0,,,2
830,,"Baracska",,47.297222,18.753333,,,0,,,2
831,,"Pettend",,47.26,18.708889,,,0,,,2
832,,"Kápolnásnyék",,47.245556,18.692222,,,0,,,2
833,,"Velence",,47.226944,18.663889,,,0,,,2
834,,"Velencefürdő",,47.218611,18.648056,,,0,,,2
835,,"Gárdony",,47.205833,18.624722,,,0,,,2
836,,"Agárd",,47.198056,18.605833,,,0,,,2
837,,"Dinnyés",,47.179722,18.560833,,,0,,,2
838,,"Székesfehérvár",,47.183611,18.424722,,,0,,,1
839,,"Szabadbattyán",,47.105278,18.388333,,,0,,,2
840,,"Kiscséripuszta",,47.048056,18.355,,,0,,,2
841,,"Lepsény",,46.9875,18.248056,,,0,,,2
842,,"Balatonaliga",,46.984444,18.171389,,,0,,,2
843,,"Balatonvilágos",,46.964167,18.157222,,,0,,,2
844,,"Szabadifürdő",,46.926111,18.103333,,,0,,,2
846,,"Ózd alsó",,48.227778,20.306111,,,0,,,2
847,,"Ózd",,48.2225,20.294722,,,0,,,2
848,,"Alsóboldva",,48.212778,20.792222,,,0,,,2
849,,"Boldva",,48.223333,20.790278,,,0,,,2
850,,"Borsodszirák",,48.259167,20.770556,,,0,,,2
851,,"Edelény alsó",,48.279167,20.760833,,,0,,,2
852,,"Edelény",,48.299722,20.749444,,,0,,,2
853,,"Szendrőlád",,48.334444,20.731944,,,0,,,2
854,,"Szendrő",,48.400725,20.721346,,,0,,,2
855,,"Szendrő felső",,48.409907,20.720148,,,0,,,2
856,,"Szalonna",,48.449444,20.722222,,,0,,,2
857,,"Perkupa",,48.471389,20.691111,,,0,,,2
858,,"Szemeretelep",,47.443056,19.214167,,,0,,,2
859,,"Jósvafő-Aggtelek",,48.489722,20.693889,,,0,,,2
860,,"Bódvaszilas",,48.5375,20.738056,,,0,,,2
861,,"Komjáti",,48.5475,20.759722,,,0,,,2
862,,"Tornanádaska",,48.558333,20.787222,,,0,,,2
867,,"Onga",,48.121111,20.906667,,,0,,,2
869,,"Szikszó-Vásártér",,48.193056,20.934722,,,0,,,2
870,,"Szikszó",,48.201667,20.941667,,,0,,,2
871,,"Aszaló",,48.220278,20.961667,,,0,,,2
872,,"Halmaj",,48.246667,20.991667,,,0,,,2
873,,"Csobád",,48.277222,21.033889,,,0,,,2
874,,"Ináncs",,48.291111,21.057778,,,0,,,2
875,,"Forró-Encs",,48.3275,21.117778,,,0,,,2
876,,"Méra",,48.363056,21.140278,,,0,,,2
877,,"Novajidrány",,48.404444,21.170556,,,0,,,2
879,,"Hernádszurdok",,48.487222,21.213889,,,0,,,2
880,,"Hidasnémeti",,48.508333,21.229722,,,0,,,2
881,,"Mád",,48.19,21.268889,,,0,,,2
882,,"Rátka",,48.215,21.230278,,,0,,,2
883,,"Tállya",,48.226944,21.225278,,,0,,,2
884,,"Golop",,48.242778,21.204167,,,0,,,2
885,,"Abaújszántó",,48.286944,21.181667,,,0,,,2
886,,"Abaújszántói fürdő",,48.268333,21.179722,,,0,,,2
887,,"Abaújkér",,48.309444,21.198333,,,0,,,2
888,,"Boldogkőváralja",,48.345,21.208889,,,0,,,2
889,,"Korlát-Vizsoly",,48.365,21.219167,,,0,,,2
890,,"Fony",,48.411389,21.242778,,,0,,,2
891,,"Hejce-Vilmány",,48.419444,21.245556,,,0,,,2
892,,"Göncruszka",,48.445,21.246944,,,0,,,2
893,,"Gönc",,48.470556,21.261389,,,0,,,2
894,,"Zsujta",,48.4925,21.265,,,0,,,2
895,,"Bodrogkeresztúr",,48.175556,21.354167,,,0,,,2
896,,"Szegi",,48.201944,21.387778,,,0,,,2
897,,"Erdőbénye",,48.218056,21.401944,,,0,,,2
898,,"Olaszliszka-Tolcsva",,48.258333,21.448056,,,0,,,2
899,,"Bodrogolaszi",,48.286944,21.512778,,,0,,,2
900,,"Sárospatak",,48.325833,21.566111,,,0,,,2
901,,"Sátoraljaújhely",,48.385833,21.657778,,,0,,,2
902,,"Vecsés",,47.40855,19.25652,,,0,,,2
903,,"Vecsés-Kertekalja",,47.403333,19.271389,,,0,,,2
904,,"Üllő",,47.390833,19.348889,,,0,,,2
905,,"Monor",,47.34545,19.43701,,,0,,,2
906,,"Pilis",,47.279722,19.536389,,,0,,,2
907,,"Albertirsa",,47.240278,19.606389,,,0,,,2
908,,"Ceglédbercel-Cserő",,47.210278,19.686944,,,0,,,2
909,,"Cegléd",,47.182778,19.806111,,,0,,,1
910,,"Abony",,47.173056,20.016389,,,0,,,2
911,,"Szolnok",,47.179167,20.175833,,,0,,,1
912,,"Szajol",,47.170556,20.295278,,,0,,,2
913,,"Törökszentmiklós",,47.170278,20.413611,,,0,,,2
917,,"Rákoscsaba-Újtelep",,47.4875,19.271944,,,0,,,2
918,,"Rákoscsaba",,47.492222,19.284722,,,0,,,2
919,,"Pécel",,47.493889,19.338889,,,0,,,2
920,,"Isaszeg",,47.535,19.390278,,,0,,,2
921,,"Gödöllő",,47.592222,19.358611,,,0,,,2
922,,"Máriabesnyő",,47.595556,19.389722,,,0,,,2
923,,"Bag",,47.641111,19.471667,,,0,,,2
924,,"Aszód",,47.647778,19.491944,,,0,,,2
925,,"Hévízgyörk",,47.638611,19.526667,,,0,,,2
926,,"Galgahévíz",,47.6325,19.558333,,,0,,,2
927,,"Tura",,47.626389,19.5975,,,0,,,2
928,,"Hatvan",,47.663611,19.671389,,,0,,,1
930,,"Vámosgyörk",,47.686111,19.927778,,,0,,,2
931,,"Adács",,47.696389,19.975278,,,0,,,2
932,,"Karácsond",,47.718056,20.048611,,,0,,,2
933,,"Ludas",,47.723889,20.095556,,,0,,,2
934,,"Nagyút",,47.7266666666666666666666666666666666667,20.1613888888888888888888888888888888889,,,0,,,2
935,,"Kál-Kápolna",,47.734167,20.254167,,,0,,,2
936,,"Füzesabony",,47.751389,20.415278,,,0,,,2
937,,"Szihalom",,47.766944,20.491944,,,0,,,2
938,,"Mezőkövesd",,47.797222,20.5675,,,0,,,2
939,,"Mezőkövesd felső",,47.807222,20.591389,,,0,,,2
940,,"Mezőkeresztes-Mezőnyárád",,47.845556,20.670278,,,0,,,2
941,,"Csincse",,47.890833,20.764167,,,0,,,2
942,,"Emőd",,47.930556,20.822778,,,0,,,2
943,,"Nyékládháza",,47.9925,20.840556,,,0,,,2
945,,"Miskolc-Tiszai",,48.098611,20.811389,,,0,,,1
946,,"Felsőzsolca",,48.083611,20.866111,,,0,,,2
947,,"Hernádnémeti-Bőcs",,48.051389,20.985,,,0,,,2
948,,"Tiszalúc",,48.039722,21.0575,,,0,,,2
949,,"Taktaharkány",,48.091667,21.128611,,,0,,,2
950,,"Taktaszada",,48.1125,21.149444,,,0,,,2
951,,"Szerencs",,48.155556,21.214444,,,0,,,1
952,,"Mezőzombor",,48.156944,21.267778,,,0,,,2
953,,"Tarcal",,48.125,21.34,,,0,,,2
954,,"Tokaj",,48.112778,21.406667,,,0,,,2
955,,"Rakamaz",,48.12,21.475,,,0,,,2
956,,"Görögszállás",,48.04,21.555,,,0,,,2
957,,"Nyírtelek",,48.005,21.615556,,,0,,,2
958,,"Rákoshegy",,47.468611,19.245556,,,0,,,2
959,,"Ecser",,47.439444,19.318056,,,0,,,2
960,,"Maglód",,47.438889,19.340833,,,0,,,2
961,,"Maglódi nyaraló",,47.434167,19.363611,,,0,,,2
962,,"Gyömrő",,47.429722,19.393333,,,0,,,2
963,,"Mende",,47.426944,19.439722,,,0,,,2
964,,"Szőlősnyaraló",,47.450278,19.561111,,,0,,,2
965,,"Sülysáp",,47.451944,19.5275,,,0,,,2
966,,"Tápiószecső",,47.443056,19.614722,,,0,,,2
967,,"Szentmártonkáta",,47.431944,19.680556,,,0,,,2
968,,"Nagykáta",,47.409722,19.737778,,,0,,,2
969,,"Farmos",,47.355278,19.8375,,,0,,,2
970,,"Tápiószele",,47.346389,19.873611,,,0,,,2
971,,"Tápiógyörgye",,47.325,19.95,,,0,,,2
972,,"Újszász",,47.285833,20.066944,,,0,,,2
973,,"Szurdokpüspöki",,47.851944,19.690278,,,0,,,2
975,,"Lőrinci",,47.739444,19.673611,,,0,,,2
976,,"Selyp",,47.759167,19.670833,,,0,,,2
977,,"Apc-Zagyvaszántó",,47.791389,19.668056,,,0,,,2
978,,"Pásztó",,47.918889,19.688889,,,0,,,2
979,,"Mátraszőlős-Hasznos",,47.938506,19.706122,,,0,,,2
980,,"Tar",,47.956111,19.746389,,,0,,,2
981,,"Mátraverebély",,47.968333,19.778611,,,0,,,2
982,,"Nagybátony",,47.981111,19.82,,,0,,,2
983,,"Kisterenye",,48.009444,19.831944,,,0,,,2
984,,"Kisterenye-Bányatelep",,48.021389,19.831944,,,0,,,2
985,,"Salgótarján külső",,48.089444,19.790833,,,0,,,2
988,,"Balatonfenyves GV",,46.7125,17.479167,,,0,,,2
989,,"Várhegyalja",,47.737778,18.366667,,,0,,,2
990,,"Imremajor",,46.680556,17.499722,,,0,,,2
991,,"Rákospalota-Kertváros",,47.578333,19.122778,,,0,,,2
995,,"Vicziántelep",,47.675833,19.286111,,,0,,,2
997,,"Pálmajor",,46.663056,17.4575,,,0,,,2
998,,"Somogyszentpál felső",,46.649167,17.472222,,,0,,,2
999,,"Somogyszentpál",,46.638611,17.478611,,,0,,,2
1000,,"Rudnaykert",,47.7175,19.257778,,,0,,,2
1001,,"Maroshegy",,47.158333,18.406667,,,0,,,2
1002,,"Bánhida",,47.573917,18.371983,,,0,,,2
1003,,"Magyarkút",,47.850278,19.045,,,0,,,2
1006,,"Becske alsó",,47.897222,19.364722,,,0,,,2
1007,,"Hosszúberek-Péteri",,47.370556,19.389722,,,0,,,2
1008,,"Monorierdő",,47.308889,19.499167,,,0,,,2
1009,,"Ceglédbercel",,47.215833,19.658611,,,0,,,2
1010,,"Budai út",,47.208333,19.731389,,,0,,,2
1013,,"Büdöskútpuszta",,48.373056,20.726111,,,0,,,2
1014,,"Bánrévei Vízmű",,48.282778,20.368333,,,0,,,2
1015,,"Rákoskert",,47.456389,19.296111,,,0,,,2
1017,,"Szirmabesenyő",,48.146944,20.783056,,,0,,,2
1021,,"Kitérőgyár",,47.766944,19.935278,,,0,,,2
1022,,"Tápiószentmárton",,47.373333,19.797778,,,0,,,2
1023,,"Zagyvarékas",,47.244229,20.097435,,,0,,,2
1024,,"Abonyi út",,47.206667,20.124722,,,0,,,2
1026,,"Jászkisér felső",,47.438056,20.202222,,,0,,,2
1027,,"Szellőhát",,47.425556,20.188889,,,0,,,2
1031,,"Szilvásvárad-Szalajkavölgy",,48.0956,20.38272,,,0,,,2
1033,,"Vásárosnamény külső",,48.084444,22.255556,,,0,,,2
1039,,"Újváros",,46.660556,20.536111,,,0,,,2
1040,,"Városi park",,46.697778,19.864722,,,0,,,2
1044,,"Belsőkamaráspuszta",,46.341944,20.848889,,,0,,,2
1045,,"Sajószöged",,47.945278,20.981667,,,0,,,2
1046,,"Kazincbarcika alsó",,48.255278,20.649167,,,0,,,2
1047,,"Nyárjas",,46.857778,19.923611,,,0,,,2
1049,,"Pogonyipuszta",,48.296389,20.381667,,,0,,,2
1051,,"Sióvölgy",,46.911103,18.076964,,,0,,,2
1053,,"Répáspuszta",,46.430278,17.847222,,,0,,,2
1054,,"Virányos",,48.066667,21.527222,,,0,,,2
1055,,"Füzesbokor",,47.988611,21.6475,,,0,,,2
1126,,"Kunfehértó",,46.355833,19.417222,,,0,,,2
1127,,"Erdőszél",,46.329444,19.395,,,0,,,2
1128,,"Jánoshalma",,46.293056,19.330278,,,0,,,2
1129,,"Mélykút",,46.213056,19.370556,,,0,,,2
1130,,"Bácsalmás",,46.118056,19.346389,,,0,,,2
1131,,"Almás",,46.116389,19.328611,,,0,,,2
1133,,"Bácsbokod-Bácsborsód",,46.115833,19.16,,,0,,,2
1136,,"Baja",,46.189167,18.955833,,,0,,,2
1137,,"Harkakötöny",,46.458333,19.601944,,,0,,,2
1138,,"Tajó",,46.473056,19.650556,,,0,,,2
1139,,"Kiskunmajsa",,46.501667,19.728056,,,0,,,2
1140,,"Jászszentlászló",,46.565833,19.753611,,,0,,,2
1141,,"Galambos",,46.625,19.801111,,,0,,,2
1142,,"Pestszentimre",,47.402222,19.188611,,,0,,,2
1143,,"Gyál felső",,47.390278,19.204722,,,0,,,2
1144,,"Gyál",,47.376667,19.219444,,,0,,,2
1145,,"Ócsa",,47.301389,19.232222,,,0,,,2
1146,,"Inárcs-Kakucs",,47.247222,19.317778,,,0,,,2
1147,,"Dabas",,47.194722,19.328889,,,0,,,2
1148,,"Gyón",,47.178333,19.355556,,,0,,,2
1149,,"Hernád",,47.161389,19.4025,,,0,,,2
1162,,"Bakonygyirót",,47.416389,17.811944,,,0,,,2
1163,,"Vinye",,47.360317,17.819635,,,0,,,2
1164,,"Nemesgörzsöny",,47.381667,17.400556,,,0,,,2
1165,,"Rábahíd",,47.44,17.335833,,,0,,,2
1166,,"Öskü",,47.162222,18.076389,,,0,,,2
1169,,"Márkó",,47.1275,17.813889,,,0,,,2
1170,,"Nemeskocs",,47.203333,17.188889,,,0,,,2
1174,,"Zalagyömörő",,47.011111,17.220833,,,0,,,2
1175,,"Rigács",,47.061667,17.199167,,,0,,,2
1176,,"Kemenespálfa",,47.139722,17.183056,,,0,,,2
1178,,"Lentiszombathely",,46.6113888888888888888888888888888888889,16.5725,,,0,,,2
1179,,"Ortaháza",,46.6266666666666666666666666666666666667,16.6858333333333333333333333333333333333,,,0,,,2
1180,,"Rádiháza",,46.654722,16.765833,,,0,,,2
1181,,"Baktüttös",,46.690833,16.826389,,,0,,,2
1183,,"Budafa",,46.851667,16.624722,,,0,,,2
1184,,"Zalapatakalja",,46.845556,16.603889,,,0,,,2
1185,,"Tormásliget",,47.430556,16.781667,,,0,,,2
1189,,"Belecska",,46.64,18.411389,,,0,,,2
1191,,"Almár",,47.956111,20.356944,,,0,,,2
1227,,"Vasútmúzeum",,47.543889,19.099444,,,0,,,2
1241,,"Abda",,47.690833,17.540556,,,0,,,2
1302,,"Barosstelep",,47.398889,18.989167,,,0,,,2
1550,,"Fegyvernek-Örményes",,47.194444,20.5575,,,0,,,2
1621,,"Zagyvapálfalva",,48.068889,19.785,,,0,,,2
1622,,"Salgótarján",,48.105556,19.807222,,,0,,,2
1623,,"Szabadisóstó",,46.933889,18.118056,,,0,,,2
1624,,"Siófok",,46.907778,18.053889,,,0,,,1
1625,,"Balatonszéplak felső",,46.898056,18.018056,,,0,,,2
1626,,"Balatonszéplak alsó",,46.891944,17.993333,,,0,,,2
1627,,"Zamárdi felső",,46.886111,17.969444,,,0,,,2
1628,,"Zamárdi",,46.88,17.944722,,,0,,,2
1629,,"Szántód",,46.861944,17.899167,,,0,,,2
1631,,"Szőny-Déli",,47.735278,18.141944,,,0,,,2
1635,,"Várpalota",,47.194444,18.149167,,,0,,,2
1636,,"Pétfürdő",,47.1675,18.121389,,,0,,,2
1637,,"Hajmáskér",,47.141111,18.009444,,,0,,,2
1638,,"Veszprém",,47.118889,17.91,,,0,,,2
1639,,"Herend",,47.136944,17.760278,,,0,,,2
1641,,"Városlőd",,47.144167,17.652778,,,0,,,2
1642,,"Városlőd-Kislőd",,47.133889,17.631111,,,0,,,2
1643,,"Ajka",,47.106667,17.573611,,,0,,,2
1644,,"Ajka-Gyártelep",,47.0925,17.536667,,,0,,,2
1646,,"Devecser",,47.1125,17.435278,,,0,,,2
1647,,"Somlóvásárhely",,47.124444,17.369167,,,0,,,2
1648,,"Tüskevár",,47.128611,17.331389,,,0,,,2
1649,,"Karakószörcsök",,47.133611,17.287778,,,0,,,2
1650,,"Kerta",,47.151944,17.237222,,,0,,,2
1651,,"Boba",,47.183333,17.191389,,,0,,,2
1652,,"Börgönd",,47.140278,18.515,,,0,,,2
1653,,"Belsőbáránd",,47.102778,18.499722,,,0,,,2
1664,,"Zichyújfalu",,47.124444,18.6725,,,0,,,2
1665,,"Seregélyes",,47.121111,18.580556,,,0,,,2
1666,,"Polgárdi-Ipartelepek",,47.079167,18.314444,,,0,,,2
1667,,"Polgárdi",,47.07,18.284167,,,0,,,2
1668,,"Füle",,47.05,18.255278,,,0,,,2
1669,,"Zánka-Erzsébettábor",,46.8775,17.709167,,,0,,,2
1670,,"Csajág",,47.033889,18.186389,,,0,,,2
1671,,"Balatonakarattya",,47.017222,18.167778,,,0,,,2
1672,,"Csittényhegy",,47.025278,18.1375,,,0,,,2
1673,,"Balatonkenese",,47.0325,18.105556,,,0,,,2
1674,,"Balatonfűzfő",,47.060278,18.0425,,,0,,,2
1675,,"Balatonalmádi",,47.028333,18.015,,,0,,,2
1676,,"Káptalanfüred",,47.008889,18.003889,,,0,,,2
1677,,"Alsóörs",,46.985278,17.974722,,,0,,,2
1678,,"Csopak",,46.974722,17.931111,,,0,,,2
1679,,"Balatonarács",,46.9625,17.8975,,,0,,,2
1680,,"Balatonfüred",,46.955833,17.883056,,,0,,,2
1681,,"Aszófő",,46.925556,17.8325,,,0,,,2
1682,,"Örvényes",,46.9125,17.818056,,,0,,,2
1683,,"Balatonudvari",,46.904722,17.808056,,,0,,,2
1684,,"Fövenyes",,46.893611,17.789444,,,0,,,2
1685,,"Balatonakali-Dörgicse",,46.88,17.747778,,,0,,,2
1686,,"Zánka-Köveskál",,46.872778,17.687778,,,0,,,2
1687,,"Balatonszepezd",,46.851111,17.663056,,,0,,,2
1688,,"Szepezdfürdő",,46.839722,17.649444,,,0,,,2
1689,,"Révfülöp",,46.829167,17.632222,,,0,,,2
1690,,"Balatonrendes",,46.824722,17.582778,,,0,,,2
1691,,"Ábrahámhegy",,46.815,17.572222,,,0,,,2
1692,,"Badacsonyörs",,46.805556,17.531667,,,0,,,2
1693,,"Kisújszállás",,47.223889,20.751111,,,0,,,2
1695,,"Karcag",,47.303333,20.928056,,,0,,,2
1697,,"Püspökladány",,47.3275,21.128889,,,0,,,1
1698,,"Kaba",,47.368889,21.259444,,,0,,,2
1699,,"Hajdúszoboszló",,47.429444,21.406944,,,0,,,2
1700,,"Ebes",,47.462778,21.488889,,,0,,,2
1701,,"Debrecen",,47.520278,21.628611,,,0,,,1
1702,,"Debrecen-Csapókert",,47.540556,21.648056,,,0,,,2
1703,,"Apafa",,47.580278,21.655833,,,0,,,2
1704,,"Bocskaikert",,47.6425,21.666389,,,0,,,2
1705,,"Hajdúhadház",,47.686944,21.679167,,,0,,,2
1706,,"Téglás",,47.714722,21.684722,,,0,,,2
1708,,"Újfehértó",,47.814444,21.706389,,,0,,,2
1710,,"Nyíregyháza",,47.946667,21.705556,,,0,,,1
1711,,"Sóstó",,47.998051,21.729047,,,0,,,2
1712,,"Sóstóhegy",,48.012222,21.742778,,,0,,,2
1713,,"Kemecse",,48.065556,21.801667,,,0,,,2
1714,,"Nyírbogdány",,48.082222,21.855278,,,0,,,2
1715,,"Kék",,48.093333,21.883889,,,0,,,2
1716,,"Demecser",,48.111667,21.926667,,,0,,,2
1717,,"Gégény",,48.128333,21.951944,,,0,,,2
1718,,"Pátroha",,48.158611,21.996667,,,0,,,2
1719,,"Ajak",,48.1865,22.048972,,,0,,,2
1720,,"Kisvárda",,48.208333,22.078333,,,0,,,2
1721,,"Kisvárda-Hármasút",,48.228333,22.091944,,,0,,,2
1722,,"Fényeslitke",,48.267222,22.107222,,,0,,,2
1723,,"Komoró",,48.305278,22.118056,,,0,,,2
1724,,"Tuzsér",,48.342222,22.131667,,,0,,,2
1725,,"Tiszabezdéd",,48.371389,22.145,,,0,,,2
1726,,"Záhony",,48.402222,22.183611,,,0,,,1
1727,,"Karcag-Vásártér",,47.3225,20.9075,,,0,,,2
1728,,"Berekfürdő",,47.374722,20.827222,,,0,,,2
1729,,"Kunmadaras",,47.415278,20.793056,,,0,,,2
1730,,"Tiszaszentimre",,47.490833,20.733056,,,0,,,2
1731,,"Tiszaszőlős",,47.555556,20.728056,,,0,,,2
1733,,"Hosszúhát",,47.235556,21.101944,,,0,,,2
1734,,"Szerep",,47.234444,21.145833,,,0,,,2
1735,,"Sárrétudvari",,47.231667,21.180833,,,0,,,2
1736,,"Biharnagybajom",,47.208889,21.221944,,,0,,,2
1737,,"Füzesgyarmat",,47.113056,21.194444,,,0,,,2
1738,,"Füzesgyarmatfürdő",,47.093787,21.201582,,,0,,,2
1739,,"Báránd",,47.299722,21.235278,,,0,,,2
1740,,"Sáp",,47.259722,21.360556,,,0,,,2
1741,,"Berettyóújfalu",,47.211944,21.535556,,,0,,,2
1742,,"Mezőpeterd",,47.176111,21.625278,,,0,,,2
1743,,"Biharkeresztes",,47.135556,21.721389,,,0,,,2
1744,,"Tócóvölgy",,47.529444,21.588889,,,0,,,2
1747,,"Sáregres",,46.7825,18.588889,,,0,,,2
1748,,"Simontornya",,46.756582,18.540674,,,0,,,2
1749,,"Tolnanémedi",,46.727778,18.475833,,,0,,,2
1750,,"Pincehely",,46.681389,18.43,,,0,,,2
1751,,"Keszőhidegkút-Gyönk",,46.597778,18.426111,,,0,,,2
1752,,"Szárazd",,46.575556,18.420833,,,0,,,2
1753,,"Regöly",,46.568889,18.396111,,,0,,,2
1754,,"Szakály-Hőgyész",,46.523611,18.389444,,,0,,,2
1755,,"Dúzs",,46.493889,18.377222,,,0,,,2
1756,,"Csibrák",,46.466667,18.336389,,,0,,,2
1757,,"Kurd",,46.449167,18.319167,,,0,,,2
1758,,"Döbrököz",,46.418889,18.255,,,0,,,2
1759,,"Dombóvár",,46.37,18.149722,,,0,,,1
1760,,"Dombóvár alsó",,46.363889,18.134167,,,0,,,2
1765,,"Somoskőújfalu",,48.154722,19.815556,,,0,,,2
1766,,"Jászfényszaru",,47.593056,19.754444,,,0,,,2
1767,,"Pusztamonostor",,47.564444,19.794167,,,0,,,2
1768,,"Jászberény",,47.494444,19.893333,,,0,,,2
1769,,"Meggyespele",,47.441944,19.938889,,,0,,,2
1770,,"Portelek",,47.418056,19.958889,,,0,,,2
1771,,"Jászboldogháza-Jánoshida",,47.366944,20.001389,,,0,,,2
1773,,"Jászárokszállás",,47.635556,19.971111,,,0,,,2
1774,,"Jászdózsa",,47.563056,20.028056,,,0,,,2
1775,,"Jászapáti",,47.513611,20.155,,,0,,,2
1776,,"Jászkisér",,47.456111,20.203333,,,0,,,2
1777,,"Jászladány",,47.373333,20.159167,,,0,,,2
1778,,"Szászberek",,47.320556,20.090833,,,0,,,2
1779,,"Gyöngyöshalász",,47.743056,19.932222,,,0,,,2
1780,,"Gyöngyös",,47.783056,19.937222,,,0,,,2
1794,,"Erdőtelek",,47.683333,20.3025,,,0,,,2
1795,,"Heves",,47.609444,20.306111,,,0,,,2
1796,,"Hevesvezekény",,47.562222,20.365833,,,0,,,2
1797,,"Tarnaszentmiklós",,47.546944,20.390833,,,0,,,2
1798,,"Kisköre",,47.495556,20.481667,,,0,,,2
1799,,"Abádszalók",,47.455278,20.553056,,,0,,,2
1801,,"Kunhegyes",,47.376667,20.641111,,,0,,,2
1802,,"Kenderes",,47.254444,20.686111,,,0,,,2
1803,,"Maklár",,47.808056,20.404722,,,0,,,2
1804,,"Andornaktálya",,47.852621,20.402136,,,0,,,2
1805,,"Eger",,47.891667,20.381667,,,0,,,2
1806,,"Egervár",,47.908056,20.380556,,,0,,,2
1807,,"Eger-Felnémet",,47.936667,20.370556,,,0,,,2
1808,,"Szarvaskő",,47.988611,20.3325,,,0,,,2
1809,,"Mónosbél",,48.031944,20.33,,,0,,,2
1810,,"Bélapátfalva",,48.055556,20.340556,,,0,,,2
1811,,"Bélapátfalvi Cementgyár",,48.058056,20.355,,,0,,,2
1812,,"Szilvásvárad",,48.11345,20.37919,,,0,,,2
1817,,"Hejőkeresztúr",,47.960278,20.869444,,,0,,,2
1818,,"Tiszaújváros",,47.926111,21.030556,,,0,,,2
1823,,"Miskolc-Gömöri",,48.106667,20.800278,,,0,,,2
1824,,"Sajókeresztúr",,48.168008,20.774014,,,0,,,2
1825,,"Sajóecseg",,48.186111,20.766667,,,0,,,2
1827,,"Sajószentpéter",,48.222222,20.708056,,,0,,,2
1829,,"Kazincbarcika",,48.264444,20.6275,,,0,,,2
1830,,"Sajókaza",,48.272778,20.581944,,,0,,,2
1831,,"Vadna",,48.276389,20.555278,,,0,,,2
1832,,"Dubicsány",,48.280833,20.504722,,,0,,,2
1833,,"Raposka",,46.851389,17.412778,,,0,,,2
1835,,"Ivacs",,47.641944,19.273889,,,0,,,2
1836,,"Kisköre-Tiszahíd",,47.480835,20.507698,,,0,,,2
1837,,"Rozsály",,47.912778,22.7825,,,0,,,2
1838,,"Pusztakettős",,47.453611,20.749722,,,0,,,2
1839,,"Kisvác",,47.795278,19.113611,,,0,,,2
1840,,"Tiszafüred-Gyártelep",,47.6075,20.736111,,,0,,,2
1849,,"Újkenéz",,48.251111,22.221667,,,0,,,2
1858,,"Püspökladány-Vásártér",,47.319167,21.096111,,,0,,,2
1860,,"Végegyháza alsó",,46.3675,20.866944,,,0,,,2
1861,,"Orosháza felső",,46.553611,20.655278,,,0,,,2
1863,,"Ambrózfalva",,46.353056,20.740556,,,0,,,2
1865,,"Alsónyék",,46.199444,18.738056,,,0,,,2
1866,,"Tompapuszta",,46.321389,20.966389,,,0,,,2
1867,,"Halászlak",,46.911879,20.56228,,,0,,,2
1868,,"Sirató",,46.840556,20.61,,,0,,,2
1869,,"Csabacsűd felső",,46.829167,20.649167,,,0,,,2
1871,,"Orosháza-Üveggyár",,46.579979,20.683644,,,0,,,2
1874,,"Gyulai városerdő",,46.69482,21.32281,,,0,,,2
1877,,"Kórógyszentgyörgy",,46.564377,20.224998,,,0,,,2
1882,,"Kunszállás",,46.784444,19.767222,,,0,,,2
1883,,"Selymes",,46.655321,19.8534,,,0,,,2
1884,,"Petőfiszállási tanyák",,46.587805,19.874509,,,0,,,2
1885,,"Kisteleki szőlők",,46.514199,19.92868,,,0,,,2
1886,,"Kapitányság",,46.435336,19.987564,,,0,,,2
1887,,"Őszeszék",,46.39025,20.016017,,,0,,,2
1888,,"Vilmaszállás",,46.366389,20.030833,,,0,,,2
1889,,"Jánosszállás",,46.334359,20.051199,,,0,,,2
1890,,"Felsőpakony",,47.343056,19.230556,,,0,,,2
1892,,"Felsőméntelek",,46.986944,19.558611,,,0,,,2
1893,,"Alsóméntelek",,46.961558,19.579121,,,0,,,2
1894,,"Nagynyír",,46.935,19.591944,,,0,,,2
1895,,"Úrihegy",,46.917778,19.621389,,,0,,,2
1896,,"Miklóstelep",,46.913412,19.630913,,,0,,,2
1897,,"Tiszajenő alsó",,47.016944,20.134444,,,0,,,2
1898,,"Óbög",,46.987222,20.111111,,,0,,,2
1899,,"Árpádszállás",,46.866389,19.989444,,,0,,,2
1900,,"Tőserdő",,46.851111,19.980278,,,0,,,2
1901,,"Tiszaalpár felső",,46.836256,19.976753,,,0,,,2
1902,,"Borsihalom",,46.773056,19.92,,,0,,,2
1903,,"Kismindszenti út",,46.753673,19.887958,,,0,,,2
1904,,"Petőfiváros",,46.725556,19.848611,,,0,,,2
1905,,"Csorna",,47.601944,17.248889,,,0,,,1
1979,,"Szorgalmatos",,47.986667,21.366389,,,0,,,2
1981,,"Fótfürdő",,47.6225,19.200556,,,0,,,2
1982,,"Fenyveshegy",,47.818333,19.068056,,,0,,,2
2002,,"Hűvösvölgy",,47.541202,18.96351,,,0,,,2
2003,,"Hárshegy",,47.535318,18.961433,,,0,,,2
2004,,"Szépjuhászné",,47.528277,18.955246,,,0,,,2
2005,,"Jánoshegy",,47.51433,18.95047,,,0,,,2
2006,,"Virágvölgy",,47.505965,18.95876,,,0,,,2
2007,,"Csillebérc",,47.498196,18.961694,,,0,,,2
2008,,"Normafa",,47.5,18.970558,,,0,,,2
2009,,"Széchenyihegy",,47.49413,18.977049,,,0,,,2
2012,,"Balatonfőkajár felső",,47.031389,18.215278,,,0,,,2
2013,,"Piroska",,47.148333,20.129722,,,0,,,2
2018,,"Somodor",,46.4725,17.836667,,,0,,,2
2020,,"Középmező",,45.995833,18.668889,,,0,,,2
2022,,"Jobbágyi",,47.828889,19.6875,,,0,,,2
2121,,"Ferihegy",,47.437222,19.223889,,,0,,,2
2167,,"Máriapócs",,47.852778,22.019167,,,0,,,2
2168,,"Máriaudvar",,47.751944,19.165,,,0,,,2
2404,,"Nagyberki",,46.353333,18.004167,,,0,,,2
2476,,"Badacsonytomaj",,46.804722,17.518056,,,0,,,2
2477,,"Badacsony",,46.788611,17.506389,,,0,,,2
2478,,"Badacsonylábdihegy",,46.793889,17.470833,,,0,,,2
2479,,"Badacsonytördemic-Szigliget",,46.809722,17.469167,,,0,,,2
2480,,"Nemesgulács-Kisapáti",,46.836944,17.476389,,,0,,,2
2481,,"Tapolca",,46.877778,17.428611,,,0,,,2
2483,,"Uzsabánya alsó",,46.898333,17.345278,,,0,,,2
2484,,"Uzsa",,46.920278,17.331667,,,0,,,2
2485,,"Sümegi Bazaltbánya",,46.9525,17.2925,,,0,,,2
2486,,"Sümeg",,46.981111,17.270833,,,0,,,2
2487,,"Gógánfa",,47.021111,17.207778,,,0,,,2
2488,,"Ukk",,47.041944,17.195833,,,0,,,2
2489,,"Nemeskeresztúr",,47.093611,17.183611,,,0,,,2
2490,,"Jánosháza",,47.115833,17.171667,,,0,,,2
2493,,"Keszthely",,46.758333,17.248056,,,0,,,1
2494,,"Alsógyenes",,46.765556,17.277778,,,0,,,2
2495,,"Gyenesdiás",,46.763333,17.292778,,,0,,,2
2496,,"Vonyarcvashegy",,46.755278,17.318333,,,0,,,2
2497,,"Balatongyörök",,46.751944,17.354444,,,0,,,2
2498,,"Becehegy",,46.776111,17.372778,,,0,,,2
2499,,"Balatonederics",,46.8025,17.385,,,0,,,2
2500,,"Dabronc",,47.025766,17.167006,,,0,,,2
2502,,"Türje",,46.994444,17.093611,,,0,,,2
2503,,"Zalabér-Batyk",,46.983056,17.040833,,,0,,,2
2504,,"Pakod",,46.959167,16.996667,,,0,,,2
2505,,"Pókaszepetk",,46.924444,16.972222,,,0,,,2
2506,,"Kemendollár",,46.905833,16.946667,,,0,,,2
2507,,"Zalaegerszeg",,46.833056,16.848333,,,0,,,1
2508,,"Bocfölde",,46.780278,16.853611,,,0,,,2
2509,,"Sárhida",,46.7558333333333333333333333333333333333,16.8513888888888888888888888888888888889,,,0,,,2
2510,,"Bak",,46.7325,16.8491666666666666666666666666666666667,,,0,,,2
2511,,"Tófej",,46.6708333333333333333333333333333333333,16.8019444444444444444444444444444444444,,,0,,,2
2512,,"Gutorfölde",,46.6469444444444444444444444444444444444,16.7397222222222222222222222222222222222,,,0,,,2
2513,,"Csömödér-Páka",,46.6080555555555555555555555555555555556,16.6411111111111111111111111111111111111,,,0,,,2
2514,,"Iklódbördőce",,46.6030555555555555555555555555555555556,16.6047222222222222222222222222222222222,,,0,,,2
2515,,"Lenti",,46.621389,16.528611,,,0,,,2
2516,,"Rédics",,46.6180555555555555555555555555555555556,16.4711111111111111111111111111111111111,,,0,,,2
2519,,"Zalalövő",,46.845556,16.576389,,,0,,,2
2520,,"Zalaegerszeg-Ola",,46.849167,16.844722,,,0,,,2
2521,,"Andráshida",,46.862778,16.78,,,0,,,2
2522,,"Bagod",,46.875,16.746111,,,0,,,2
2523,,"Zalaszentgyörgy",,46.872222,16.7125,,,0,,,2
2524,,"Zalacséb-Salomvár",,46.858056,16.662222,,,0,,,2
2526,,"Kópháza",,47.631389,16.6375,,,0,,,2
2527,,"Nagycenk",,47.601111,16.690278,,,0,,,2
2529,,"Sopronkövesd",,47.548333,16.748056,,,0,,,2
2530,,"Lövő",,47.509444,16.7775,,,0,,,2
2532,,"Újkér",,47.457778,16.786667,,,0,,,2
2533,,"Bük",,47.388611,16.752222,,,0,,,1
2534,,"Acsád",,47.308333,16.734722,,,0,,,2
2535,,"Salköveskút-Vassurány",,47.291389,16.704167,,,0,,,2
2544,,"Zalaszentiván",,46.8875,16.909444,,,0,,,2
2545,,"Alsónemesapáti",,46.854167,16.936389,,,0,,,2
2547,,"Józsa",,47.600833,21.584444,,,0,,,2
2548,,"Hajdúszentgyörgy",,47.608056,21.578333,,,0,,,2
2549,,"Zelemér",,47.627778,21.578333,,,0,,,2
2550,,"Hajdúböszörmény",,47.668056,21.524167,,,0,,,2
2551,,"Hajdúvid",,47.749444,21.508056,,,0,,,2
2552,,"Hajdúdorog",,47.805556,21.493056,,,0,,,2
2553,,"Hajdúnánás",,47.831944,21.426667,,,0,,,2
2554,,"Hajdúnánás-Vásártér",,47.843056,21.407222,,,0,,,2
2555,,"Tedej",,47.903611,21.404444,,,0,,,2
2556,,"Tiszavasvári",,47.945278,21.374722,,,0,,,2
2557,,"Egyházerdő",,47.9725,21.365,,,0,,,2
2567,,"Tiszalök",,48.013056,21.369167,,,0,,,2
2568,,"Hajnalos",,47.998889,21.414167,,,0,,,2
2569,,"Kisfástanya",,47.989167,21.47,,,0,,,2
2570,,"Tiszaeszlár",,48.010556,21.491944,,,0,,,2
2571,,"Bashalom",,48.026111,21.514722,,,0,,,2
2573,,"Sáránd",,47.415556,21.625,,,0,,,2
2574,,"Derecske",,47.365,21.584167,,,0,,,2
2575,,"Derecske-Vásártér",,47.352222,21.58,,,0,,,2
2576,,"Konyár",,47.323611,21.666111,,,0,,,2
2577,,"Konyári Sóstófürdő",,47.324167,21.744444,,,0,,,2
2578,,"Pocsaj-Esztár",,47.288333,21.793056,,,0,,,2
2579,,"Kismarja",,47.243889,21.813889,,,0,,,2
2580,,"Nagykereki",,47.191667,21.8,,,0,,,2
2585,,"Debrecen-Szabadságtelep",,47.527778,21.658611,,,0,,,2
2586,,"Debrecen-Kondoros",,47.525556,21.713889,,,0,,,2
2587,,"Nagycsere",,47.523889,21.763056,,,0,,,2
2588,,"Haláp",,47.521667,21.818333,,,0,,,2
2589,,"Vámospércs",,47.518056,21.893889,,,0,,,2
2590,,"Szentannapuszta",,47.52,21.965833,,,0,,,2
2591,,"Nyírábrány",,47.523889,22.016944,,,0,,,2
2592,,"Dombostanya",,47.602778,21.706389,,,0,,,2
2593,,"Hajdúsámson",,47.608056,21.755278,,,0,,,2
2594,,"Tamásipuszta",,47.632778,21.796111,,,0,,,2
2595,,"Aradványpuszta",,47.662778,21.8425,,,0,,,2
2596,,"Nyíradony",,47.699444,21.903333,,,0,,,2
2597,,"Nyírmihálydi",,47.7375,21.958889,,,0,,,2
2598,,"Nyírgelse",,47.750833,21.987778,,,0,,,2
2599,,"Nyírbogát",,47.793056,22.066389,,,0,,,2
2600,,"Nagykálló",,47.871111,21.825833,,,0,,,2
2601,,"Kállósemjén",,47.854722,21.935,,,0,,,2
2602,,"Nyírbátor",,47.8425,22.131111,,,0,,,2
2603,,"Nyírcsászári",,47.865556,22.179167,,,0,,,2
2604,,"Hodász",,47.896111,22.213611,,,0,,,2
2605,,"Nyírmeggyes",,47.9225,22.256667,,,0,,,2
2606,,"Mátészalka",,47.951389,22.313333,,,0,,,1
2607,,"Kocsord",,47.941944,22.375833,,,0,,,2
2608,,"Kocsord alsó",,47.946389,22.400556,,,0,,,2
2609,,"Győrtelek",,47.936667,22.424722,,,0,,,2
2610,,"Győrtelek alsó",,47.921111,22.443333,,,0,,,2
2611,,"Ököritófülpös",,47.911389,22.495,,,0,,,2
2612,,"Porcsalma-Tyukod",,47.868056,22.568333,,,0,,,2
2614,,"Csenger",,47.826111,22.666389,,,0,,,2
2690,,"Kisfái",,46.888303,19.807366,,,0,,,2
2691,,"Nyárlőrinci szőlők",,46.8775,19.828333,,,0,,,2
2692,,"Nyárlőrinc alsó",,46.863889,19.878889,,,0,,,2
2693,,"Tiszaug-Tiszahídfő",,46.866106,20.052098,,,0,,,2
2695,,"Csongrádi úti tanyák",,46.690278,19.921667,,,0,,,2
2696,,"Kettőshalom",,46.689167,20.0225,,,0,,,2
2697,,"Csongrád alsó",,46.711389,20.126389,,,0,,,2
2698,,"Dónát",,46.66988,20.368168,,,0,,,2
2699,,"Pusztatemplom",,46.676667,20.407222,,,0,,,2
2702,,"Előhát",,47.364722,20.653611,,,0,,,2
2737,,"Polgárdi-Tekerespuszta",,47.017778,18.297778,,,0,,,2
2739,,"Szatina-Kishajmás",,46.202778,18.083611,,,0,,,2
2740,,"Márok",,45.886944,18.499167,,,0,,,2
2741,,"Nagynyárád",,45.953333,18.564722,,,0,,,2
2743,,"Szászvár",,46.2875,18.3697222222222222222222222222222222222,,,0,,,2
2744,,"Cikó",,46.262778,18.554444,,,0,,,2
2747,,"Gyöngyfa-Magyarmecske",,45.983889,17.958889,,,0,,,2
2749,,"Nagyhát",,47.581389,21.445,,,0,,,2
2750,,"Balmazújváros",,47.613889,21.348056,,,0,,,2
2751,,"Kónya",,47.600833,21.2375,,,0,,,2
2752,,"Hortobágy",,47.586111,21.154722,,,0,,,2
2753,,"Hortobágyi Halastó",,47.604167,21.074167,,,0,,,2
2754,,"Ohat-Pusztakócs",,47.623333,20.951111,,,0,,,2
2755,,"Egyek",,47.616944,20.883611,,,0,,,2
2756,,"Tiszafüred",,47.627778,20.756111,,,0,,,2
2757,,"Poroszló",,47.657778,20.654444,,,0,,,2
2758,,"Kétútköz",,47.694167,20.565,,,0,,,2
2759,,"Egerfarmos",,47.711667,20.5225,,,0,,,2
2832,,"Piliscsaba",,47.638056,18.829722,,,0,,,1
2833,,"Pilisjászfalu",,47.656111,18.797778,,,0,,,2
2834,,"Leányvár",,47.685833,18.774722,,,0,,,2
2835,,"Dorog",,47.723333,18.732778,,,0,,,2
2836,,"Esztergom-Kertváros",,47.743333,18.719167,,,0,,,2
2837,,"Esztergom",,47.7775,18.743611,,,0,,,2
2838,,"Dunaalmás",,47.733056,18.326389,,,0,,,2
2839,,"Neszmély",,47.734444,18.345278,,,0,,,2
2840,,"Süttő",,47.761111,18.455,,,0,,,2
2841,,"Piszke",,47.752222,18.480278,,,0,,,2
2842,,"Lábatlan",,47.751944,18.513333,,,0,,,2
2843,,"Eternitgyár",,47.756944,18.5325,,,0,,,2
2844,,"Nyergesújfalu felső",,47.762222,18.540556,,,0,,,2
2845,,"Nyergesújfalu",,47.761111,18.561667,,,0,,,2
2847,,"Tokod",,47.735,18.675,,,0,,,2
2848,,"Környe",,47.541667,18.330278,,,0,,,2
2849,,"Kecskéd alsó",,47.519722,18.316667,,,0,,,2
2850,,"Oroszlány",,47.486944,18.308611,,,0,,,2
2868,,"Győrszabadhegy",,47.663056,17.648056,,,0,,,2
2869,,"Ménfőcsanak felső",,47.638333,17.615,,,0,,,2
2873,,"Gyömöre-Tét",,47.501672,17.559596,,,0,,,2
2875,,"Szerecseny",,47.469167,17.5475,,,0,,,2
2876,,"Gecse-Gyarmat",,47.456111,17.515,,,0,,,2
2877,,"Vaszar",,47.4025,17.496389,,,0,,,2
2878,,"Pápa",,47.340556,17.458889,,,0,,,1
2879,,"Mezőlak",,47.324722,17.371389,,,0,,,2
2880,,"Mihályháza",,47.318889,17.331667,,,0,,,2
2881,,"Vinár",,47.306667,17.284722,,,0,,,2
2882,,"Külsővat",,47.279167,17.219722,,,0,,,2
2883,,"Celldömölk",,47.261389,17.151944,,,0,,,2
2884,,"Kemenesmihályfa",,47.278056,17.111111,,,0,,,2
2885,,"Nagysimonyi",,47.265556,17.058889,,,0,,,2
2886,,"Ostffyasszonyfa",,47.283889,17.023889,,,0,,,2
2887,,"Sárvár",,47.259167,16.928889,,,0,,,2
2888,,"Porpác",,47.238611,16.8325,,,0,,,2
3393,,"Balatonföldvár",,46.853889,17.881389,,,0,,,2
3394,,"Balatonszárszó",,46.832222,17.830278,,,0,,,2
3604,,"Balatonszemes",,46.811944,17.776389,,,0,,,2
3605,,"Balatonlelle felső",,46.793889,17.7175,,,0,,,2
3606,,"Balatonlelle",,46.7875,17.694167,,,0,,,2
3607,,"Fonyódliget",,46.759167,17.592222,,,0,,,2
3608,,"Balatonboglár",,46.776111,17.647222,,,0,,,2
3609,,"Balatonfenyves alsó",,46.708611,17.455278,,,0,,,2
3610,,"Fonyód",,46.750278,17.558889,,,0,,,1
3611,,"Bélatelep",,46.737778,17.535,,,0,,,2
3612,,"Alsóbélatelep",,46.724167,17.516389,,,0,,,2
3613,,"Balatonfenyves",,46.713611,17.482778,,,0,,,2
3614,,"Máriahullámtelep",,46.704722,17.435,,,0,,,2
3615,,"Balatonmáriafürdő",,46.704167,17.374722,,,0,,,2
3616,,"Balatonberény",,46.713889,17.316944,,,0,,,2
3617,,"Balatonszentgyörgy",,46.692778,17.288889,,,0,,,1
3618,,"Vörs",,46.663611,17.260278,,,0,,,2
3620,,"Zalaszentjakab",,46.491667,17.135278,,,0,,,2
3622,,"Nagykanizsa",,46.440833,16.986667,,,0,,,1
3624,,"Murakeresztúr",,46.363889,16.876944,,,0,,,2
3625,,"Zalakomár",,46.530278,17.188056,,,0,,,2
3626,,"Szárazrét",,47.200833,18.381111,,,0,,,2
3630,,"Bodajk",,47.318333,18.251944,,,0,,,2
3631,,"Csókakő",,47.3275,18.240556,,,0,,,2
3632,,"Mór",,47.369167,18.189167,,,0,,,2
3633,,"Bakonysárkány",,47.443611,18.103611,,,0,,,2
3634,,"Kisbér",,47.494167,18.024722,,,0,,,2
3637,,"Nagyigmánd-Bábolna",,47.630556,18.050833,,,0,,,2
3639,,"Budapest-Déli",,47.498889,19.025,,,0,,,1
3640,,"Budapest-Kelenföld",,47.464444,19.02,,,0,,,2
3641,,"Budaörs",,47.4475,18.965,,,0,,,2
3642,,"Biatorbágy",,47.480278,18.834444,,,0,,,2
3643,,"Herceghalom",,47.493611,18.746111,,,0,,,2
3644,,"Bicske",,47.484167,18.6175,,,0,,,2
3645,,"Szár",,47.485,18.5275,,,0,,,2
3646,,"Szárliget",,47.518333,18.495833,,,0,,,2
3648,,"Alsógalla",,47.563333,18.420278,,,0,,,2
3649,,"Tatabánya",,47.585556,18.393056,,,0,,,1
3650,,"Vértesszőlős",,47.619444,18.375278,,,0,,,2
3651,,"Tóvároskert",,47.646111,18.348611,,,0,,,2
3652,,"Tata",,47.665,18.3275,,,0,,,2
3653,,"Almásfüzitő",,47.725278,18.262222,,,0,,,2
3654,,"Almásfüzitő felső",,47.731389,18.216389,,,0,,,2
3655,,"Szőny",,47.735556,18.1775,,,0,,,2
3656,,"Komárom",,47.749444,18.113611,,,0,,,2
3657,,"Ács",,47.717222,18.004444,,,0,,,2
3658,,"Nagyszentjános",,47.705556,17.871389,,,0,,,2
3659,,"Győrszentiván",,47.688611,17.745556,,,0,,,2
3660,,"Győr-Gyárváros",,47.684444,17.663889,,,0,,,2
3661,,"Győr",,47.681944,17.634722,,,0,,,1
3662,,"Öttevény",,47.719722,17.489167,,,0,,,2
3663,,"Lébény-Mosonszentmiklós",,47.755278,17.426389,,,0,,,2
3664,,"Kimle-Károlyháza",,47.803889,17.342778,,,0,,,2
3665,,"Mosonmagyaróvár",,47.849722,17.267222,,,0,,,2
3666,,"Levél",,47.889722,17.1925,,,0,,,2
3667,,"Hegyeshalom",,47.913889,17.145556,,,0,,,2
3668,,"Óbuda",,47.568611,19.033889,,,0,,,2
3669,,"Üröm",,47.580556,19.002222,,,0,,,2
3670,,"Solymár",,47.596111,18.95,,,0,,,2
3671,,"Pilisvörösvár",,47.614444,18.902222,,,0,,,2
3672,,"Klotildliget",,47.637778,18.846389,,,0,,,2
3673,,"Kútvölgy",,46.459444,20.451944,,,0,,,2
3674,,"Székkutas",,46.503889,20.541111,,,0,,,2
3820,,"Kaposszentjakab",,46.358056,17.821944,,,0,,,2
3821,,"Kaposvár",,46.352778,17.795,,,0,,,1
3822,,"Kaposújlak",,46.366667,17.715,,,0,,,2
3823,,"Kaposmérő",,46.365278,17.698889,,,0,,,2
3824,,"Kaposfő",,46.364167,17.656667,,,0,,,2
3825,,"Kiskorpád",,46.361389,17.606667,,,0,,,2
3826,,"Jákó-Nagybajom",,46.344444,17.554444,,,0,,,2
3827,,"Kutas",,46.326111,17.453889,,,0,,,2
3828,,"Beleg",,46.316944,17.420556,,,0,,,2
3829,,"Ötvöskónyi",,46.292778,17.358056,,,0,,,2
3830,,"Somogyszob",,46.289167,17.305556,,,0,,,2
3831,,"Bolhás",,46.282222,17.275278,,,0,,,2
3832,,"Szenta",,46.274167,17.182222,,,0,,,2
3833,,"Zrínyitelep",,46.275278,17.138056,,,0,,,2
3834,,"Csurgó",,46.261111,17.091667,,,0,,,2
3836,,"Gyékényes",,46.249167,16.956389,,,0,,,1
3837,,"Adony",,47.106111,18.847778,,,0,,,2
3838,,"Kulcs",,47.051111,18.8975,,,0,,,2
3839,,"Rácalmás",,47.023333,18.908889,,,0,,,2
3841,,"Dunaújváros",,46.960556,18.913889,,,0,,,2
3842,,"Újvenyim",,46.936944,18.868889,,,0,,,2
3843,,"Mezőfalva",,46.905556,18.810278,,,0,,,2
3849,,"Nagykarácsony felső",,46.866047,18.783064,,,0,,,2
3850,,"Nagykarácsony",,46.848729,18.765722,,,0,,,2
3851,,"Alap",,46.831944,18.657778,,,0,,,2
3852,,"Cece",,46.773333,18.623333,,,0,,,2
3853,,"Vajta",,46.713611,18.648056,,,0,,,2
3854,,"Rétszilas alsó",,46.829167,18.639444,,,0,,,2
3855,,"Nagydorog",,46.615485,18.65002,,,0,,,2
3858,,"Tengelic",,46.516111,18.695278,,,0,,,2
3860,,"Fácánkert",,46.449041,18.735661,,,0,,,2
3861,,"Tolna-Mözs",,46.416389,18.750556,,,0,,,2
3862,,"Szekszárd-Palánk",,46.3802777777777777777777777777777777778,18.7283333333333333333333333333333333333,,,0,,,2
3863,,"Szekszárd",,46.349444,18.7125,,,0,,,2
3864,,"Őcsény",,46.318889,18.7425,,,0,,,2
3865,,"Decs",,46.283889,18.756111,,,0,,,2
3874,,"Csikóstőttős",,46.337222,18.152778,,,0,,,2
3875,,"Mágocs-Alsómocsolád",,46.3102777777777777777777777777777777778,18.2222222222222222222222222222222222222,,,0,,,2
3876,,"Szalatnak",,46.2844444444444444444444444444444444444,18.2886111111111111111111111111111111111,,,0,,,2
3878,,"Máza-Szászvár",,46.279167,18.411389,,,0,,,2
3879,,"Váralja",,46.281667,18.436111,,,0,,,2
3880,,"Nagymányok",,46.280278,18.459167,,,0,,,2
3881,,"Hidas-Bonyhád",,46.269444,18.523333,,,0,,,2
3882,,"Mőcsény",,46.2575,18.591944,,,0,,,2
3884,,"Bátaszék",,46.202222,18.715556,,,0,,,2
3885,,"Pörböly",,46.199167,18.826389,,,0,,,2
3890,,"Orosháza",,46.566111,20.664722,,,0,,,1
3891,,"Orosházi tanyák",,46.596944,20.760556,,,0,,,2
3892,,"Csorvás",,46.623611,20.840833,,,0,,,2
3893,,"Csorvás alsó",,46.634722,20.888333,,,0,,,2
3894,,"Telekgerendás",,46.656111,20.963889,,,0,,,2
3895,,"Fürjes",,46.67214,21.02306,,,0,,,2
3896,,"Fényes",,46.659444,21.15,,,0,,,2
3897,,"Bicere",,46.66,21.179444,,,0,,,2
3898,,"Gyula",,46.656389,21.273333,,,0,,,2
3899,,"József Szanatórium",,46.704722,21.3325,,,0,,,2
3900,,"Sarkadi Cukorgyár",,46.73,21.383611,,,0,,,2
3901,,"Sarkad",,46.736944,21.402222,,,0,,,2
3902,,"Kötegyán",,46.758333,21.479722,,,0,,,2
3903,,"Méhkerék",,46.774444,21.455556,,,0,,,2
3904,,"Sarkadkeresztúr",,46.823611,21.4175,,,0,,,2
3905,,"Okány",,46.8925,21.339167,,,0,,,2
3906,,"Újszeged",,46.242222,20.16,,,0,,,2
3907,,"Szőreg",,46.211389,20.183056,,,0,,,2
3908,,"Deszk",,46.210278,20.246389,,,0,,,2
3909,,"Kiszombor",,46.191944,20.413056,,,0,,,2
3910,,"Kiszombor megálló",,46.191111,20.430833,,,0,,,2
3911,,"Makó",,46.204722,20.474722,,,0,,,2
3912,,"Apátfalva",,46.175278,20.580556,,,0,,,2
3913,,"Magyarcsanád",,46.174444,20.610278,,,0,,,2
3914,,"Nagylak",,46.17,20.708333,,,0,,,2
3915,,"Nagylaki Kendergyár",,46.189167,20.717222,,,0,,,2
3916,,"Csanádpalota",,46.236111,20.7325,,,0,,,2
3917,,"Mezőhegyes",,46.310833,20.815556,,,0,,,2
3918,,"Végegyháza",,46.384444,20.878611,,,0,,,2
3919,,"Mezőkovácsháza",,46.408333,20.9,,,0,,,2
3920,,"Mezőkovácsháza felső",,46.415556,20.918056,,,0,,,2
3921,,"Magyarbánhegyes",,46.451389,20.97,,,0,,,2
3922,,"Medgyesegyháza",,46.495278,21.029167,,,0,,,2
3923,,"Bánkút",,46.505278,21.091944,,,0,,,2
3924,,"Belsőperegpuszta",,46.321111,20.916667,,,0,,,2
3925,,"Battonya",,46.282222,21.003889,,,0,,,2
4729,,"Baja-Dunafürdő",,46.193333,18.919167,,,0,,,2
4730,,"Kaposszekcső",,46.330556,18.143056,,,0,,,2
4731,,"Vásárosdombó",,46.310556,18.138889,,,0,,,2
4944,,"Sásd",,46.257222,18.104722,,,0,,,2
4945,,"Godisa",,46.223333,18.104722,,,0,,,2
4946,,"Abaliget",,46.152778,18.073611,,,0,,,2
4947,,"Hetvehely",,46.128333,18.045,,,0,,,2
4948,,"Bükkösd",,46.113056,17.999444,,,0,,,2
4949,,"Cserdi-Helesfa",,46.086667,17.987778,,,0,,,2
4950,,"Szentlőrinc",,46.033333,17.990833,,,0,,,2
4951,,"Bicsérd",,46.041389,18.057778,,,0,,,2
4952,,"Mecsekalja-Cserkút",,46.059722,18.150278,,,0,,,2
4953,,"Pécs",,46.065833,18.223611,,,0,,,1
4954,,"Pécs-Külváros",,46.071667,18.24,,,0,,,2
4955,,"Pécsbánya-Rendező",,46.063333,18.270278,,,0,,,2
4956,,"Pécsudvard",,46.01,18.275556,,,0,,,2
4957,,"Szőkéd",,45.9675,18.29,,,0,,,2
4958,,"Áta",,45.936389,18.306944,,,0,,,2
4959,,"Kistótfalu",,45.909722,18.315278,,,0,,,2
4960,,"Vokány",,45.899722,18.334722,,,0,,,2
4961,,"Palkonya",,45.891667,18.393889,,,0,,,2
4962,,"Villánykövesd",,45.879722,18.425833,,,0,,,2
4963,,"Villány",,45.8775,18.451389,,,0,,,2
4964,,"Magyarbóly",,45.834167,18.491944,,,0,,,2
4966,,"Magyarszék",,46.210278,18.188056,,,0,,,2
4967,,"Mecsekpölöske",,46.224167,18.213056,,,0,,,2
4968,,"Mecsekjánosi",,46.215278,18.241944,,,0,,,2
4969,,"Komló",,46.189167,18.265278,,,0,,,2
4970,,"Királyegyháza-Rigópuszta",,45.989167,17.971667,,,0,,,2
4971,,"Sumony",,45.960833,17.913333,,,0,,,2
4972,,"Okorág-Kárászpuszta",,45.933611,17.864444,,,0,,,2
4973,,"Kákics",,45.904167,17.8525,,,0,,,2
4985,,"Bóly",,45.9375,18.538333,,,0,,,2
4986,,"Mohács",,46.0025,18.683333,,,0,,,2
4993,,"Sellye",,45.873333,17.858889,,,0,,,2
5006,,"Toponár",,46.398333,17.840833,,,0,,,2
5007,,"Somogyaszaló",,46.453611,17.840278,,,0,,,2
5008,,"Mernye",,46.509444,17.832222,,,0,,,2
5009,,"Felsőmocsolád",,46.556389,17.8225,,,0,,,2
5010,,"Kisbárapáti",,46.615,17.866667,,,0,,,2
5011,,"Bonnya",,46.611389,17.909167,,,0,,,2
5012,,"Andocs",,46.646944,17.8925,,,0,,,2
5856,,"Karád",,46.681111,17.874722,,,0,,,2
5857,,"Somogymeggyes",,46.720556,17.920556,,,0,,,2
5858,,"Kapoly",,46.713611,17.977778,,,0,,,2
6069,,"Tab",,46.734167,18.041111,,,0,,,2
6070,,"Bábonymegyer",,46.746111,18.110833,,,0,,,2
6071,,"Daránypuszta",,46.764722,18.143889,,,0,,,2
6072,,"Som-Nagyberény",,46.803056,18.149444,,,0,,,2
6073,,"Ádánd",,46.854444,18.141667,,,0,,,2
6074,,"Siójut",,46.879444,18.126667,,,0,,,2
6075,,"Kapostüskevár",,46.367778,17.774167,,,0,,,2
6076,,"Kaposfüred",,46.415,17.759444,,,0,,,2
6077,,"Várda",,46.4625,17.721667,,,0,,,2
6078,,"Somogyjád",,46.490833,17.694444,,,0,,,2
6079,,"Osztopán",,46.515556,17.656944,,,0,,,2
6080,,"Pamuk",,46.553127,17.636412,,,0,,,2
6081,,"Somogyvár",,46.580556,17.634722,,,0,,,2
6082,,"Öreglak",,46.608607,17.632733,,,0,,,2
6083,,"Tatárvár",,46.636667,17.621111,,,0,,,2
6084,,"Lengyeltóti",,46.660556,17.613611,,,0,,,2
6085,,"Pusztaberény",,46.686111,17.594722,,,0,,,2
6089,,"Örkény",,47.132778,19.447222,,,0,,,2
6090,,"Táborfalva",,47.098545,19.479318,,,0,,,2
6091,,"Felsőlajos",,47.068834,19.498415,,,0,,,2
6092,,"Lajosmizse",,47.028333,19.542778,,,0,,,2
6093,,"Lajosmizse alsó",,47.0225,19.550278,,,0,,,2
6094,,"Klábertelep",,47.005556,19.551667,,,0,,,2
6095,,"Méntelek",,46.978611,19.570833,,,0,,,2
6096,,"Hetényegyháza",,46.930833,19.595,,,0,,,2
6097,,"Kecskemét-Máriaváros",,46.899444,19.677778,,,0,,,2
6098,,"Nyársapát",,47.100278,19.7925,,,0,,,2
6099,,"Nagykőrös",,47.038333,19.76,,,0,,,2
6100,,"Katonatelep",,46.963056,19.718889,,,0,,,2
6101,,"Kecskemét",,46.913889,19.700833,,,0,,,1
6102,,"Városföld",,46.816667,19.753333,,,0,,,2
6103,,"Kiskunfélegyháza",,46.7067,19.83474,,,0,,,1
6104,,"Petőfiszállás",,46.617374,19.865229,,,0,,,2
6105,,"Csengele",,46.538321,19.909008,,,0,,,2
6106,,"Kistelek",,46.466944,19.966944,,,0,,,2
6107,,"Balástya",,46.413333,20.001389,,,0,,,2
6108,,"Szatymaz",,46.345621,20.04374,,,0,,,2
6109,,"Kiskundorozsma",,46.271667,20.090556,,,0,,,2
6110,,"Szeged",,46.239722,20.143056,,,0,,,1
6111,,"Alsóúrrét",,46.901667,19.771944,,,0,,,2
6112,,"Nyárlőrinc",,46.87,19.851389,,,0,,,2
6113,,"Világoshegy",,46.855278,19.940278,,,0,,,2
6114,,"Szikra",,46.858333,19.975,,,0,,,2
6115,,"Lakitelek",,46.873056,20.003611,,,0,,,2
6116,,"Tiszaug",,46.850556,20.074167,,,0,,,2
6117,,"Tiszasas",,46.826389,20.089167,,,0,,,2
6118,,"Csépa",,46.8125,20.134722,,,0,,,2
6119,,"Szelevény",,46.811944,20.196389,,,0,,,2
6120,,"Gátér",,46.685,19.9625,,,0,,,2
6121,,"Kónyaszék",,46.699931,20.074299,,,0,,,2
6122,,"Csongrád",,46.704444,20.140556,,,0,,,2
6123,,"Hékéd",,46.675,20.266667,,,0,,,2
6124,,"Fábiánsebestyén",,46.670278,20.456667,,,0,,,2
6125,,"Gádoros",,46.656711,20.588157,,,0,,,2
6126,,"Justhmajor",,46.62,20.615833,,,0,,,2
6127,,"Szentetornya",,46.590964,20.628334,,,0,,,2
6128,,"Gyopárosfürdő",,46.567784,20.630662,,,0,,,2
6411,,"Szabadságliget",,47.626123,18.893481,,,0,,,2
7196,,"Röszke",,46.19261,20.03055,,,0,,,2
7197,,"Tószeg",,47.098056,20.138333,,,0,,,2
7198,,"Tiszavárkony",,47.059444,20.143056,,,0,,,2
7199,,"Tiszajenő-Vezseny",,47.036319,20.142415,,,0,,,2
7200,,"Újbög",,46.962222,20.093889,,,0,,,2
7201,,"Tiszakécske",,46.937512,20.082016,,,0,,,2
7202,,"Kerekdomb",,46.906944,20.052778,,,0,,,2
7203,,"Tiszaalpár",,46.818611,19.982778,,,0,,,2
7204,,"Tiszaalpár alsó",,46.790897,19.951409,,,0,,,2
7205,,"Tiszatenyő",,47.134167,20.3725,,,0,,,2
7206,,"Pusztapó",,47.091667,20.458333,,,0,,,2
7207,,"Kétpó",,47.076944,20.487778,,,0,,,2
7209,,"Mezőtúr",,47.0125,20.622778,,,0,,,2
7210,,"Nagylapos",,46.974167,20.750556,,,0,,,2
7211,,"Gyoma",,46.925833,20.821667,,,0,,,2
7212,,"Csárdaszállás",,46.861111,20.932778,,,0,,,2
7213,,"Mezőberény",,46.814722,21.013056,,,0,,,2
7214,,"Murony",,46.756944,21.038056,,,0,,,2
7216,,"Békéscsaba",,46.669722,21.081667,,,0,,,1
7218,,"Kétegyháza",,46.5325,21.171944,,,0,,,2
7219,,"Lőkösháza",,46.432222,21.2375,,,0,,,1
7220,,"Kengyel",,47.089722,20.339722,,,0,,,2
7221,,"Bagimajor",,47.061111,20.316667,,,0,,,2
7222,,"Martfű",,47.019444,20.291667,,,0,,,2
7223,,"Tiszaföldvár",,46.975556,20.276389,,,0,,,2
7224,,"Homok",,46.9475,20.270278,,,0,,,2
7225,,"Kungyalu",,46.910833,20.2675,,,0,,,2
7226,,"Kunszentmárton",,46.848333,20.293333,,,0,,,2
7228,,"Nagytőke",,46.763333,20.291667,,,0,,,2
7230,,"Szentes",,46.657778,20.2725,,,0,,,2
7231,,"Szegvár",,46.588611,20.249444,,,0,,,2
7232,,"Mindszent",,46.524167,20.194167,,,0,,,2
7233,,"Mártély",,46.473333,20.236111,,,0,,,2
7234,,"Pusztabánréve",,46.911111,20.562222,,,0,,,2
7235,,"Szarvas",,46.860833,20.566667,,,0,,,2
7236,,"Csabacsűd",,46.823056,20.663333,,,0,,,2
7237,,"Kisszénás",,46.751389,20.721389,,,0,,,2
7239,,"Kiscsákó",,46.719167,20.717778,,,0,,,2
7240,,"Nagyszénás",,46.672778,20.674167,,,0,,,2
7243,,"Kardoskút",,46.498056,20.6975,,,0,,,2
7244,,"Tótkomlós",,46.409167,20.726944,,,0,,,2
7245,,"Nagyér",,46.365278,20.738333,,,0,,,2
7246,,"Pitvaros",,46.326175,20.746446,,,0,,,2
7247,,"Dévaványa",,47.033889,20.943333,,,0,,,2
7249,,"Körösladány",,46.97,21.085833,,,0,,,2
7250,,"Szeghalom",,47.015278,21.148333,,,0,,,2
7251,,"Vésztő",,46.938889,21.263611,,,0,,,2
7258,,"Szeged-Rókus",,46.266111,20.125278,,,0,,,2
7259,,"Algyő",,46.335556,20.196111,,,0,,,2
7261,,"Hódmezővásárhelyi Népkert",,46.403333,20.312778,,,0,,,2
7262,,"Hódmezővásárhely",,46.413333,20.34,,,0,,,2
53375,,"Körmend",,47.016389,16.599167,,,0,,,1
53587,,"Szentgotthárd",,46.957222,16.263056,,,0,,,1
53589,,"Szombathely",,47.237778,16.6325,,,0,,,1
54857,,"Sáferkút",,48.010278,19.071389,,,0,,,2
63737,,"Magdolnavölgy",,47.6475,18.818889,,,0,,,2
65389,,"Haris",,46.964722,16.2825,,,0,,,2
65390,,"Egyházasrádóc",,47.091389,16.62,,,0,,,2
65391,,"Alsórönök",,46.964167,16.379444,,,0,,,2
65392,,"Szombathely-Szőlős",,47.206389,16.641667,,,0,,,2
65393,,"Rátót",,46.9675,16.433056,,,0,,,2
65394,,"Ják-Balogunyom",,47.161389,16.630556,,,0,,,2
65395,,"Vasvár",,47.056944,16.800278,,,0,,,2
65396,,"Répcelak",,47.418889,17.008889,,,0,,,2
65397,,"Rajka",,47.995556,17.191389,,,0,,,2
65398,,"Püspökmolnári",,47.086111,16.7675,,,0,,,2
65399,,"Kőszeg",,47.382222,16.556389,,,0,,,2
65402,,"Kastélypark",,47.390278,18.988333,,,0,,,2
65413,,"Hanságliget",,47.72,17.215556,,,0,,,2
65414,,"Vica",,47.477778,17.111944,,,0,,,2
65415,,"Vép",,47.235833,16.7275,,,0,,,2
65416,,"Mosonszolnok",,47.8525,17.160278,,,0,,,2
65417,,"Jánossomorja",,47.789167,17.1375,,,0,,,2
65419,,"Bősárkány",,47.685556,17.234167,,,0,,,2
65420,,"Szil-Sopronnémeti",,47.533333,17.209444,,,0,,,2
65421,,"Magyarkeresztúr-Zsebeháza",,47.514167,17.176111,,,0,,,2
65422,,"Páli-Vadosfa",,47.4925,17.137778,,,0,,,2
65423,,"Beled",,47.466667,17.084444,,,0,,,2
65424,,"Dénesfa",,47.448611,17.054722,,,0,,,2
65425,,"Csánig",,47.430278,17.026111,,,0,,,2
65426,,"Vámoscsalád",,47.385556,16.961667,,,0,,,2
65427,,"Vasegerszeg",,47.375,16.928889,,,0,,,2
65428,,"Hegyfalu",,47.357778,16.898333,,,0,,,2
65429,,"Pósfa",,47.326944,16.855833,,,0,,,2
65430,,"Ölbő-Alsószeleste",,47.300556,16.843056,,,0,,,2
65432,,"Gencsapáti felső",,47.299722,16.593889,,,0,,,2
65433,,"Lukácsháza alsó",,47.326389,16.586389,,,0,,,2
65434,,"Kőszegfalva",,47.361667,16.567778,,,0,,,2
65435,,"Gyöngyöshermán",,47.202778,16.657222,,,0,,,2
65436,,"Bezenye",,47.973611,17.207222,,,0,,,2
65437,,"Kámon",,47.2675,16.618889,,,0,,,2
65438,,"Sorkifalud",,47.1375,16.719167,,,0,,,2
65439,,"Szentléránt",,47.12,16.735556,,,0,,,2
65440,,"Pácsony",,47.009722,16.833611,,,0,,,2
65441,,"Győrvár",,46.99,16.840556,,,0,,,2
65442,,"Egervár-Vasboldogasszony",,46.942222,16.862222,,,0,,,2
65443,,"Zalaszentlőrinc",,46.913889,16.8775,,,0,,,2
65444,,"Gencsapáti alsó",,47.285833,16.6,,,0,,,2
65445,,"Gyöngyösfalu",,47.316111,16.59,,,0,,,2
65446,,"Lukácsháza",,47.341111,16.580556,,,0,,,2
65520,,"Horvátnádalja",,47.005278,16.544444,,,0,,,2
65521,,"Csákánydoroszló",,46.978333,16.499722,,,0,,,2
75222,,"Váckisújfalu",,47.705,19.340278,,,0,,,2
88385,,"Csisztafürdő",,46.650833,17.576944,,,0,,,2
95640,,"Mórágy",,46.236021,18.627255,,,0,,,2
98854,,"Kismacs",,47.551111,21.542778,,,0,,,2
107614,,"Pusztaszentistván",,47.439869,19.470254,,,0,,,2
108090,,"Külsőhalas",,46.416944,19.501111,,,0,,,2
112636,,"Aranyvölgy",,47.573795,19.017489,,,0,,,2
112637,,"Szélhegy",,47.601111,18.928056,,,0,,,2
112638,,"Vörösvárbánya",,47.61,18.913611,,,0,,,2
149951,,"Máriaszőlőtelep",,46.702778,17.411911,,,0,,,2
151432,,"Akadémiaújtelep",,47.485724,19.22294,,,0,,,2
151471,,"Újpalota",,47.5316,19.126206,,,0,,,2
152451,,"Szeged, Somogyi utca",,46.250464,20.147713,,,0,,,2
152452,,"Hódmezővásárhely, Hősök tere",,46.412183,20.31759,,,0,,,2
152453,,"Hódmezővásárhely, Kossuth tér",,46.41465,20.319727,,,0,,,2
152454,,"Hódmezővásárhely, Strandfürdő",,46.409147,20.315671,,,0,,,2
152455,,"Szeged, Széchenyi tér",,46.252683,20.14935,,,0,,,2
152456,,"Szeged, Anna-kút",,46.256184,20.147587,,,0,,,2
152457,,"Szeged, Rókusi templom",,46.259255,20.141771,,,0,,,2
152458,,"Hódmezővásárhely, Kálvin János tér",,46.416677,20.328532,,,0,,,2
152459,,"Hódmezővásárhely vasútállomás",,46.413242,20.338701,,,0,,,2
152460,,"Szeged, Tavasz utca",,46.260715,20.139055,,,0,,,2
152461,,"Szeged, Damjanich utca",,46.262753,20.135248,,,0,,,2
152462,,"Szeged, Vásárhelyi Pál utca",,46.264173,20.131109,,,0,,,2
152463,,"Szeged, Bécsi körút ",,46.243459,20.143809,,,0,,,2
152464,,"Hódmezővásárhelyi Népkert vasútállomás",,46.403733,20.312986,,,0,,,2
152465,,"Szeged vasútállomás",,46.239789,20.142561,,,0,,,2
152466,,"Szeged, Bem utca",,46.240198,20.141247,,,0,,,2
152467,,"Szeged, Galamb utca",,46.24153,20.142297,,,0,,,2
152468,,"Szeged, Aradi vértanúk tere",,46.247839,20.147,,,0,,,2
152469,,"Szeged, Pulz utca",,46.264452,20.126061,,,0,,,2
152470,,"Szeged, Rókus vasútállomás",,46.266107,20.125686,,,0,,,2
171510,,"Macs Ipari Park mh.",,47.55787,21.524373,,,0,,,2
189208,,"Szentmihálytelek",,46.2229,20.0808,,,0,,,2
